[{"title": "Acidente com carreta na BR-381 próximo a Betim", "link": "https://example.com/1", "pubDate": "2025-11-09T16:45:00", "source": "G1", "snippet": "Colisão envolvendo carreta na pista marginal.", "type": "Acidente", "road": "BR-381", "region": "Sudeste", "city": "Betim, MG", "lat": -19.9667, "lon": -44.1986}, {"title": "Roubo de carga na BR-153, área rural de Anápolis", "link": "https://example.com/2", "pubDate": "2025-11-09T07:30:00", "source": "R7", "snippet": "Carga roubada durante madrugada.", "type": "Roubo", "road": "BR-153", "region": "Centro-Oeste", "city": "Anápolis, GO", "lat": -16.328, "lon": -48.953}, {"title": "Interdição por obras na BR-050 entre Uberaba e Uberlândia", "link": "https://example.com/3", "pubDate": "2025-11-08T22:10:00", "source": "PRF", "snippet": "Manutenção gera interdição parcial.", "type": "Interdição", "road": "BR-050", "region": "Centro-Oeste", "city": "Uberaba, MG", "lat": -19.7475, "lon": -47.9389}, {"title": "Furto em pátio de caminhões na zona portuária de Santos", "link": "https://example.com/4", "pubDate": "2025-11-08T20:05:00", "source": "CCR Ecovias", "snippet": "Furto de peças e equipamento.", "type": "Furto", "road": "BR-050", "region": "Sudeste", "city": "Santos, SP", "lat": -23.9608, "lon": -46.3336}, {"title": "Alerta de chuva forte em São Paulo", "link": "https://example.com/5", "pubDate": "2025-11-09T10:00:00", "source": "ClimaTempo", "snippet": "Possibilidade de temporais isolados.", "type": "Clima", "road": "", "region": "Sudeste", "city": "São Paulo, SP", "lat": -23.55, "lon": -46.6333}]